[
  {
    "name": "상무드림내과의원",
    "department": "내과",
    "address": "광주 서구 상무중앙로 95 2층 201, 202호",
    "lat": 35.1531,
    "lng": 126.8482
  },
  {
    "name": "상무우리내과의원",
    "department": "내과",
    "address": "광주 서구 상무중앙로 57 2층",
    "lat": 35.1525,
    "lng": 126.8479
  },
  {
    "name": "양내과의원",
    "department": "내과",
    "address": "광주 서구 상무대로 936",
    "lat": 35.1512,
    "lng": 126.8467
  },
  {
    "name": "가슴뛰는내과의원",
    "department": "내과",
    "address": "광주 서구 마륵복개로 91 DY빌딩 2층 201호",
    "lat": 35.1498,
    "lng": 126.8453
  },
  {
    "name": "모든내과의원",
    "department": "내과",
    "address": "광주 남구 봉선로 12 4,5층",
    "lat": 35.1345,
    "lng": 126.9021
  },
  {
    "name": "첨단우덕수내과의원",
    "department": "내과",
    "address": "광주 광산구 첨단중앙로182번길 28 2층",
    "lat": 35.2301,
    "lng": 126.8432
  },
  {
    "name": "상무수치과의원",
    "department": "치과",
    "address": "광주 서구 마륵복개로 91 DY빌딩 2층 202호",
    "lat": 35.1499,
    "lng": 126.8454
  },
  {
    "name": "치우치과의원 상무점",
    "department": "치과",
    "address": "광주 서구 상무자유로 180 대선빌딩 2-3층",
    "lat": 35.1515,
    "lng": 126.8471
  },
  {
    "name": "예인원치과병원",
    "department": "치과",
    "address": "광주 서구 상무공원로 7 4층,5층",
    "lat": 35.1508,
    "lng": 126.8463
  },
  {
    "name": "세움치과의원",
    "department": "치과",
    "address": "광주 서구 상무중앙로 101 차스타워 신관 5층 502호",
    "lat": 35.1533,
    "lng": 126.8485
  },
  {
    "name": "구구치과의원",
    "department": "치과",
    "address": "광주 북구 동문대로 109 4층",
    "lat": 35.1742,
    "lng": 126.9123
  }
]